{"features": [{"type": "Feature", "properties": {"NAME": "Denmark", "ID": 1, "SECTORS": ["Business support services", "Pharmaceuticals", "Building materials & fixtures", "Marine transportation", "Industrial machinery"], "NUM_COMPANIES": [17, 6, 6, 6, 6], "SOURCE": "https://en.wikipedia.org/wiki/List_of_companies_of_Denmark"}, "geometry": {"type": "Point", "coordinates": [10.02800992, 55.68125296]}}, {"type": "Feature", "properties": {"NAME": "Lithuania", "ID": 2, "SECTORS": ["Brewers", "Airlines", "Transportation services", "Broadline retailers", "Specialty chemicals"], "NUM_COMPANIES": [5, 4, 2, 2, 1], "SOURCE": "https://en.wikipedia.org/wiki/List_of_companies_of_Lithuania"}, "geometry": {"type": "Point", "coordinates": [23.88719355, 55.026109840000004]}}, {"type": "Feature", "properties": {"NAME": "Portugal", "ID": 3, "SECTORS": ["Software", "Banks", "Diversified industrials", "Broadcasting & entertainment", "Paper"], "NUM_COMPANIES": [6, 4, 4, 4, 3], "SOURCE": "https://en.wikipedia.org/wiki/List_of_companies_of_Portugal"}, "geometry": {"type": "Point", "coordinates": [-8.50104361, 39.295506710000005]}}, {"type": "Feature", "properties": {"NAME": "Slovakia", "ID": 4, "SECTORS": ["Banks", "Brewers", "Airlines", "Defense", "Investment services"], "NUM_COMPANIES": [5, 3, 2, 2, 2], "SOURCE": "https://en.wikipedia.org/wiki/List_of_companies_of_Slovakia"}, "geometry": {"type": "Point", "coordinates": [19.47905218, 48.405475280000005]}}, {"type": "Feature", "properties": {"NAME": "Luxembourg", "ID": 5, "SECTORS": ["Banks", "Investment services", "Broadcasting & entertainment", "Airlines", "Publishing"], "NUM_COMPANIES": [8, 5, 5, 4, 3], "SOURCE": "https://en.wikipedia.org/wiki/List_of_companies_of_Luxembourg"}, "geometry": {"type": "Point", "coordinates": [6.07182201, 49.46725361]}}, {"type": "Feature", "properties": {"NAME": "Ukraine", "ID": 6, "SECTORS": ["Iron & steel", "Banks", "Aerospace", "Industrial machinery", "Food products"], "NUM_COMPANIES": [6, 4, 3, 3, 3], "SOURCE": "https://en.wikipedia.org/wiki/List_of_companies_of_Ukraine"}, "geometry": {"type": "Point", "coordinates": [31.38326469, 48.69656673]}}, {"type": "Feature", "properties": {"NAME": "Bulgaria", "ID": 7, "SECTORS": ["Banks", "Airlines", "Brewers", "Defense", "Software"], "NUM_COMPANIES": [14, 5, 5, 4, 4], "SOURCE": "https://en.wikipedia.org/wiki/List_of_companies_of_Bulgaria"}, "geometry": {"type": "Point", "coordinates": [25.21552909, 42.468903180000005]}}, {"type": "Feature", "properties": {"NAME": "Ireland", "ID": 8, "SECTORS": ["Travel & tourism", "Food Retailers & Wholesalers", "Software", "Banks", "Fixed line telecommunications"], "NUM_COMPANIES": [12, 9, 9, 8, 7], "SOURCE": "https://en.wikipedia.org/wiki/List_of_companies_of_Ireland"}, "geometry": {"type": "Point", "coordinates": [-8.13793569, 52.875448700000014]}}, {"type": "Feature", "properties": {"NAME": "Poland", "ID": 9, "SECTORS": ["Software", "Brewers", "Coal", "Broadcasting & entertainment", "Mobile telecommunications"], "NUM_COMPANIES": [8, 8, 7, 5, 4], "SOURCE": "https://en.wikipedia.org/wiki/List_of_companies_of_Poland"}, "geometry": {"type": "Point", "coordinates": [19.39012835, 51.827595640000006]}}, {"type": "Feature", "properties": {"NAME": "Czech", "ID": 10, "SECTORS": ["Banks", "Commercial vehicles & trucks", "Brewers", "Electronic equipment", "Broadcasting & entertainment"], "NUM_COMPANIES": [6, 5, 4, 3, 3], "SOURCE": "https://en.wikipedia.org/wiki/List_of_companies_of_the_Czech_Republic"}, "geometry": {"type": "Point", "coordinates": [15.31240163, 49.43341233]}}, {"type": "Feature", "properties": {"NAME": "Austria", "ID": 11, "SECTORS": ["Recreational products", "Banks", "Electronic equipment", "Commodity chemicals", "Beverages"], "NUM_COMPANIES": [6, 5, 4, 4, 4], "SOURCE": "https://en.wikipedia.org/wiki/List_of_companies_of_Austria"}, "geometry": {"type": "Point", "coordinates": [14.1264761, 47.285494390000004]}}, {"type": "Feature", "properties": {"NAME": "Netherlands", "ID": 12, "SECTORS": ["Software", "Banks", "Food products", "Brewers", "Automobiles"], "NUM_COMPANIES": [6, 5, 5, 4, 4], "SOURCE": "https://en.wikipedia.org/wiki/List_of_companies_of_the_Netherlands"}, "geometry": {"type": "Point", "coordinates": [5.28144793, 51.8007899]}}, {"type": "Feature", "properties": {"NAME": "Switzerland", "ID": 13, "SECTORS": ["Clothing & accessories", "Airlines", "Banks", "Publishing", "Industrial machinery"], "NUM_COMPANIES": [41, 16, 12, 9, 7], "SOURCE": "https://en.wikipedia.org/wiki/List_of_companies_of_Switzerland"}, "geometry": {"type": "Point", "coordinates": [8.20867471, 46.49785878]}}, {"type": "Feature", "properties": {"NAME": "Turkey", "ID": 14, "SECTORS": ["Personal & household goods", "Construction & materials", "Automobiles & parts", "Banks", "Oil & gas producers"], "NUM_COMPANIES": [16, 15, 13, 11, 9], "SOURCE": "https://en.wikipedia.org/wiki/List_of_companies_of_Turkey"}, "geometry": {"type": "Point", "coordinates": [35.16895346, 38.7616029]}}, {"type": "Feature", "properties": {"NAME": "Spain", "ID": 15, "SECTORS": ["Heavy construction", "Banks", "Food products", "Broadcasting & entertainment", "Software"], "NUM_COMPANIES": [9, 7, 7, 6, 5], "SOURCE": "https://en.wikipedia.org/wiki/List_of_companies_of_Spain"}, "geometry": {"type": "Point", "coordinates": [-4.1475504700000005, 40.74448698]}}, {"type": "Feature", "properties": {"NAME": "Belgium", "ID": 16, "SECTORS": ["Food products", "Business support services", "Clothing & accessories", "Airlines", "Computer services"], "NUM_COMPANIES": [8, 6, 6, 5, 5], "SOURCE": "https://en.wikipedia.org/wiki/List_of_companies_of_Belgium"}, "geometry": {"type": "Point", "coordinates": [4.64065114, 50.33981576]}}, {"type": "Feature", "properties": {"NAME": "Bosnia", "ID": 17, "SECTORS": ["Brewers", "Fixed line telecommunications", "Conventional electricity", "Food retailers & wholesalers", "Broadcasting & entertainment"], "NUM_COMPANIES": [4, 3, 3, 2, 2], "SOURCE": "https://en.wikipedia.org/wiki/List_of_companies_of_Bosnia_and_Herzegovina"}, "geometry": {"type": "Point", "coordinates": [17.76876733, 43.87450125]}}, {"type": "Feature", "properties": {"NAME": "Hungary", "ID": 18, "SECTORS": ["Broadcasting & entertainment", "Banks", "Software", "Airlines", "Brewers"], "NUM_COMPANIES": [12, 8, 8, 6, 3], "SOURCE": "https://en.wikipedia.org/wiki/List_of_companies_of_Hungary"}, "geometry": {"type": "Point", "coordinates": [19.39559116, 46.862775060000004]}}, {"type": "Feature", "properties": {"NAME": "Germany", "ID": 19, "SECTORS": ["Industrial machinery", "Automobiles", "Industrial suppliers", "Consumer electronics", "Recreational products"], "NUM_COMPANIES": [27, 16, 15, 13, 13], "SOURCE": "https://en.wikipedia.org/wiki/List_of_companies_of_Germany"}, "geometry": {"type": "Point", "coordinates": [10.38578051, 50.80698181]}}, {"type": "Feature", "properties": {"NAME": "Norway", "ID": 20, "SECTORS": ["Food products", "Exploration & production", "Conventional electricity", "Marine transportation", "Heavy construction"], "NUM_COMPANIES": [5, 3, 3, 3, 2], "SOURCE": "https://en.wikipedia.org/wiki/List_of_companies_of_Norway"}, "geometry": {"type": "Point", "coordinates": [8.070614539173938, 60.80650823174761]}}, {"type": "Feature", "properties": {"NAME": "Sweden", "ID": 21, "SECTORS": ["Software", "Business support services", "Investment services", "Recreational products", "Clothing & accessories"], "NUM_COMPANIES": [38, 18, 15, 12, 11], "SOURCE": "https://en.wikipedia.org/wiki/List_of_companies_of_Sweden"}, "geometry": {"type": "Point", "coordinates": [16.74558049, 64.47966519]}}, {"type": "Feature", "properties": {"NAME": "Russia", "ID": 22, "SECTORS": ["", "Aerospace & defense", "Industrial transportation", "Media", "Basic resources"], "NUM_COMPANIES": [32, 23, 18, 18, 15], "SOURCE": "https://en.wikipedia.org/wiki/List_of_companies_of_Russia"}, "geometry": {"type": "Point", "coordinates": [96.68656112, 61.680522090000004]}}, {"type": "Feature", "properties": {"NAME": "France", "ID": 23, "SECTORS": ["Software", "Clothing & accessories", "Broadcasting & entertainment", "Banks", "Aerospace"], "NUM_COMPANIES": [13, 11, 9, 9, 7], "SOURCE": "https://en.wikipedia.org/wiki/List_of_companies_of_France"}, "geometry": {"type": "Point", "coordinates": [2.213749, 47.427638]}}, {"type": "Feature", "properties": {"NAME": "Finland", "ID": 24, "SECTORS": ["Software", "Marine transportation", "Business support services", "Restaurants & bars", "Broadline retailers"], "NUM_COMPANIES": [9, 4, 4, 3, 3], "SOURCE": "https://en.wikipedia.org/wiki/List_of_companies_of_Finland"}, "geometry": {"type": "Point", "coordinates": [26.274665600000002, 64.19884603]}}, {"type": "Feature", "properties": {"NAME": "Croatia", "ID": 25, "SECTORS": ["Broadcasting & entertainment", "Food products", "Commercial vehicles & trucks", "Banks", "Transportation services"], "NUM_COMPANIES": [11, 10, 7, 6, 5], "SOURCE": "https://en.wikipedia.org/wiki/List_of_companies_of_Croatia"}, "geometry": {"type": "Point", "coordinates": [17.20412899, 45.58047631]}}, {"type": "Feature", "properties": {"NAME": "Greece", "ID": 26, "SECTORS": ["Education", "Marine transportation", "Media", "Sports", "Research"], "NUM_COMPANIES": [40, 27, 26, 23, 19], "SOURCE": "https://en.wikipedia.org/wiki/List_of_companies_of_Greece"}, "geometry": {"type": "Point", "coordinates": [22.95555794, 38.27469623]}}, {"type": "Feature", "properties": {"NAME": "Serbia", "ID": 27, "SECTORS": ["Banks", "Food products", "Airlines", "Brewers", "Broadcasting & entertainment"], "NUM_COMPANIES": [17, 11, 7, 6, 6], "SOURCE": "https://en.wikipedia.org/wiki/List_of_companies_of_Serbia"}, "geometry": {"type": "Point", "coordinates": [20.78958334, 43.921503200000004]}}, {"type": "Feature", "properties": {"NAME": "Italy", "ID": 28, "SECTORS": ["Automobiles", "Clothing & accessories", "Recreational products", "Auto parts", "Food products"], "NUM_COMPANIES": [66, 57, 43, 15, 14], "SOURCE": "https://en.wikipedia.org/wiki/List_of_companies_of_Italy"}, "geometry": {"type": "Point", "coordinates": [12.07001339, 42.19662641]}}, {"type": "Feature", "properties": {"NAME": "Romania", "ID": 29, "SECTORS": ["Software", "Banks", "Food retailers & wholesalers", "Pharmaceuticals", "Railroads"], "NUM_COMPANIES": [5, 4, 3, 3, 3], "SOURCE": "https://en.wikipedia.org/wiki/List_of_companies_of_Romania"}, "geometry": {"type": "Point", "coordinates": [24.97293039, 45.55243127]}}, {"type": "Feature", "properties": {"NAME": "Albania", "ID": 30, "SECTORS": ["Broadcasting & entertainment", "Airlines", "Banks", "Mobile telecommunications", "Brewers"], "NUM_COMPANIES": [10, 8, 8, 5, 3], "SOURCE": "https://en.wikipedia.org/wiki/List_of_companies_of_Albania"}, "geometry": {"type": "Point", "coordinates": [19.649833960000002, 40.54244989000001]}}]}