{"features": [{"type": "Feature", "properties": {"NAME": "Denmark", "ID": 1, "SECTORS": ["Business support services", "Pharmaceuticals", "Building materials & fixtures", "Marine transportation", "Industrial machinery"], "NUM_COMPANIES": [17, 6, 6, 6, 6]}, "geometry": {"type": "Point", "coordinates": [9.501785, 56.26392]}}, {"type": "Feature", "properties": {"NAME": "Lithuania", "ID": 2, "SECTORS": ["Brewers", "Airlines", "Transportation services", "Broadline retailers", "Specialty chemicals"], "NUM_COMPANIES": [5, 4, 2, 2, 1]}, "geometry": {"type": "Point", "coordinates": [23.881275, 55.169438]}}, {"type": "Feature", "properties": {"NAME": "Portugal", "ID": 3, "SECTORS": ["Software", "Banks", "Diversified industrials", "Broadcasting & entertainment", "Paper"], "NUM_COMPANIES": [6, 4, 4, 4, 3]}, "geometry": {"type": "Point", "coordinates": [-8.224454, 39.399871999999995]}}, {"type": "Feature", "properties": {"NAME": "Slovakia", "ID": 4, "SECTORS": ["Banks", "Brewers", "Airlines", "Defense", "Investment services"], "NUM_COMPANIES": [5, 3, 2, 2, 2]}, "geometry": {"type": "Point", "coordinates": [19.699023999999998, 48.669026]}}, {"type": "Feature", "properties": {"NAME": "Luxembourg", "ID": 5, "SECTORS": ["Banks", "Investment services", "Broadcasting & entertainment", "Airlines", "Publishing"], "NUM_COMPANIES": [8, 5, 5, 4, 3]}, "geometry": {"type": "Point", "coordinates": [6.129583, 49.815273]}}, {"type": "Feature", "properties": {"NAME": "Ukraine", "ID": 6, "SECTORS": ["Iron & steel", "Banks", "Aerospace", "Industrial machinery", "Food products"], "NUM_COMPANIES": [6, 4, 3, 3, 3]}, "geometry": {"type": "Point", "coordinates": [31.16558, 48.379433]}}, {"type": "Feature", "properties": {"NAME": "Slovenia", "ID": 7, "SECTORS": ["Software", "Automobiles", "Airlines", "Transportation services", "Footwear"], "NUM_COMPANIES": [4, 4, 2, 2, 1]}, "geometry": {"type": "Point", "coordinates": [14.995463, 46.151241]}}, {"type": "Feature", "properties": {"NAME": "Bulgaria", "ID": 8, "SECTORS": ["Banks", "Airlines", "Brewers", "Defense", "Software"], "NUM_COMPANIES": [14, 5, 5, 4, 4]}, "geometry": {"type": "Point", "coordinates": [25.48583, 42.733883]}}, {"type": "Feature", "properties": {"NAME": "Ireland", "ID": 9, "SECTORS": ["Travel & tourism", "Food Retailers & Wholesalers", "Software", "Banks", "Fixed line telecommunications"], "NUM_COMPANIES": [12, 9, 9, 8, 7]}, "geometry": {"type": "Point", "coordinates": [-8.243889999999999, 53.41291]}}, {"type": "Feature", "properties": {"NAME": "Poland", "ID": 10, "SECTORS": ["Software", "Brewers", "Coal", "Broadcasting & entertainment", "Mobile telecommunications"], "NUM_COMPANIES": [8, 8, 7, 5, 4]}, "geometry": {"type": "Point", "coordinates": [19.145135999999997, 51.919438]}}, {"type": "Feature", "properties": {"NAME": "Czech", "ID": 11, "SECTORS": ["Banks", "Commercial vehicles & trucks", "Brewers", "Electronic equipment", "Broadcasting & entertainment"], "NUM_COMPANIES": [6, 5, 4, 3, 3]}, "geometry": {"type": "Point", "coordinates": [15.472961999999999, 49.817492]}}, {"type": "Feature", "properties": {"NAME": "Austria", "ID": 12, "SECTORS": ["Recreational products", "Banks", "Electronic equipment", "Commodity chemicals", "Beverages"], "NUM_COMPANIES": [6, 5, 4, 4, 4]}, "geometry": {"type": "Point", "coordinates": [14.550072, 47.516231]}}, {"type": "Feature", "properties": {"NAME": "Netherlands", "ID": 13, "SECTORS": ["Software", "Banks", "Food products", "Brewers", "Automobiles"], "NUM_COMPANIES": [6, 5, 5, 4, 4]}, "geometry": {"type": "Point", "coordinates": [5.291266, 52.132633]}}, {"type": "Feature", "properties": {"NAME": "Switzerland", "ID": 14, "SECTORS": ["Clothing & accessories", "Airlines", "Banks", "Publishing", "Industrial machinery"], "NUM_COMPANIES": [41, 16, 12, 9, 7]}, "geometry": {"type": "Point", "coordinates": [8.227511999999999, 46.818188]}}, {"type": "Feature", "properties": {"NAME": "Turkey", "ID": 15, "SECTORS": ["Personal & household goods", "Construction & materials", "Automobiles & parts", "Banks", "Oil & gas producers"], "NUM_COMPANIES": [16, 15, 13, 11, 9]}, "geometry": {"type": "Point", "coordinates": [35.243322, 38.963745]}}, {"type": "Feature", "properties": {"NAME": "Spain", "ID": 16, "SECTORS": ["Heavy construction", "Banks", "Food products", "Broadcasting & entertainment", "Software"], "NUM_COMPANIES": [9, 7, 7, 6, 5]}, "geometry": {"type": "Point", "coordinates": [-3.7492199999999998, 40.463667]}}, {"type": "Feature", "properties": {"NAME": "Belgium", "ID": 17, "SECTORS": ["Food products", "Business support services", "Clothing & accessories", "Airlines", "Computer services"], "NUM_COMPANIES": [8, 6, 6, 5, 5]}, "geometry": {"type": "Point", "coordinates": [4.469936, 50.503887]}}, {"type": "Feature", "properties": {"NAME": "Bosnia", "ID": 18, "SECTORS": ["Brewers", "Fixed line telecommunications", "Conventional electricity", "Food retailers & wholesalers", "Broadcasting & entertainment"], "NUM_COMPANIES": [4, 3, 3, 2, 2]}, "geometry": {"type": "Point", "coordinates": [17.679076000000002, 43.915886]}}, {"type": "Feature", "properties": {"NAME": "Hungary", "ID": 19, "SECTORS": ["Broadcasting & entertainment", "Banks", "Software", "Airlines", "Brewers"], "NUM_COMPANIES": [12, 8, 8, 6, 3]}, "geometry": {"type": "Point", "coordinates": [19.503304, 47.162494]}}, {"type": "Feature", "properties": {"NAME": "Germany", "ID": 20, "SECTORS": ["Industrial machinery", "Automobiles", "Industrial suppliers", "Consumer electronics", "Recreational products"], "NUM_COMPANIES": [27, 16, 15, 13, 13]}, "geometry": {"type": "Point", "coordinates": [10.451526, 51.165690999999995]}}, {"type": "Feature", "properties": {"NAME": "Norway", "ID": 21, "SECTORS": ["Food products", "Exploration & production", "Conventional electricity", "Marine transportation", "Heavy construction"], "NUM_COMPANIES": [5, 3, 3, 3, 2]}, "geometry": {"type": "Point", "coordinates": [8.468946, 60.472024]}}, {"type": "Feature", "properties": {"NAME": "Sweden", "ID": 22, "SECTORS": ["Software", "Business support services", "Investment services", "Recreational products", "Clothing & accessories"], "NUM_COMPANIES": [38, 18, 15, 12, 11]}, "geometry": {"type": "Point", "coordinates": [18.643501, 60.128161]}}, {"type": "Feature", "properties": {"NAME": "Russia", "ID": 23, "SECTORS": ["", "Aerospace & defense", "Industrial transportation", "Media", "Basic resources"], "NUM_COMPANIES": [32, 23, 18, 18, 15]}, "geometry": {"type": "Point", "coordinates": [105.31875600000001, 61.52401]}}, {"type": "Feature", "properties": {"NAME": "France", "ID": 24, "SECTORS": ["Software", "Clothing & accessories", "Broadcasting & entertainment", "Banks", "Aerospace"], "NUM_COMPANIES": [13, 11, 9, 9, 7]}, "geometry": {"type": "Point", "coordinates": [2.213749, 46.227638]}}, {"type": "Feature", "properties": {"NAME": "Finland", "ID": 25, "SECTORS": ["Software", "Marine transportation", "Business support services", "Restaurants & bars", "Broadline retailers"], "NUM_COMPANIES": [9, 4, 4, 3, 3]}, "geometry": {"type": "Point", "coordinates": [25.748151, 61.92411]}}, {"type": "Feature", "properties": {"NAME": "Croatia", "ID": 26, "SECTORS": ["Broadcasting & entertainment", "Food products", "Commercial vehicles & trucks", "Banks", "Transportation services"], "NUM_COMPANIES": [11, 10, 7, 6, 5]}, "geometry": {"type": "Point", "coordinates": [15.2, 45.1]}}, {"type": "Feature", "properties": {"NAME": "Greece", "ID": 27, "SECTORS": ["Education", "Marine transportation", "Media", "Sports", "Research"], "NUM_COMPANIES": [40, 27, 26, 23, 19]}, "geometry": {"type": "Point", "coordinates": [21.824312, 39.074208]}}, {"type": "Feature", "properties": {"NAME": "Serbia", "ID": 28, "SECTORS": ["Banks", "Food products", "Airlines", "Brewers", "Broadcasting & entertainment"], "NUM_COMPANIES": [17, 11, 7, 6, 6]}, "geometry": {"type": "Point", "coordinates": [21.005859, 44.016521000000004]}}, {"type": "Feature", "properties": {"NAME": "Italy", "ID": 29, "SECTORS": ["Automobiles", "Clothing & accessories", "Recreational products", "Auto parts", "Food products"], "NUM_COMPANIES": [66, 57, 43, 15, 14]}, "geometry": {"type": "Point", "coordinates": [12.56738, 41.87194]}}, {"type": "Feature", "properties": {"NAME": "Romania", "ID": 30, "SECTORS": ["Software", "Banks", "Food retailers & wholesalers", "Pharmaceuticals", "Railroads"], "NUM_COMPANIES": [5, 4, 3, 3, 3]}, "geometry": {"type": "Point", "coordinates": [24.96676, 45.943160999999996]}}, {"type": "Feature", "properties": {"NAME": "Albania", "ID": 31, "SECTORS": ["Broadcasting & entertainment", "Airlines", "Banks", "Mobile telecommunications", "Brewers"], "NUM_COMPANIES": [10, 8, 8, 5, 3]}, "geometry": {"type": "Point", "coordinates": [20.168331, 41.153332]}}]}